var tripData = [
    {
        "site": "Kloof Street",
        "place": "Cape Town",
        "country": "South Africa",
        "aug": 3,
        "duration": "August 3 - 6",
        "iconl": "./icons-latent/city-15.svg",
        "icona": "./icons-active/city-15.svg",
        "type": "Point",
        "lat": -33.932275,
        "lon": 18.4074013
  },
    {
        "site": "Kloof Street",
        "place": "Cape Town",
        "country": "South Africa",
        "aug": 4,
        "duration": "August 3 - 6",
        "iconl": "./icons-latent/city-15.svg",
        "icona": "./icons-active/city-15.svg",
        "type": "Point",
        "lat": -33.932275,
        "lon": 18.4074013
  },
    {
        "site": "Kloof Street",
        "place": "Cape Town",
        "country": "South Africa",
        "aug": 5,
        "duration": "August 3 - 6",
        "iconl": "./icons-latent/city-15.svg",
        "icona": "./icons-active/city-15.svg",
        "type": "Point",
        "lat": -33.932275,
        "lon": 18.4074013
  },
    {
        "site": "Ashley & Sam's",
        "place": "Windhoek",
        "country": "Namibia",
        "aug": 6,
        "duration": "August 6 - 9",
        "iconl": "./icons-latent/town-15.svg",
        "icona": "./icons-active/town-15.svg",
        "type": "Point",
        "lat": -22.5698432,
        "lon": 17.0758172
  },
    {
        "site": "Ashley & Sam's",
        "place": "Windhoek",
        "country": "Namibia",
        "aug": 7,
        "duration": "August 6 - 9",
        "iconl": "./icons-latent/town-15.svg",
        "icona": "./icons-active/town-15.svg",
        "type": "Point",
        "lat": -22.5698432,
        "lon": 17.0758172
  },
    {
        "site": "Ashley & Sam's",
        "place": "Windhoek",
        "country": "Namibia",
        "aug": 8,
        "duration": "August 6 - 9",
        "iconl": "./icons-latent/town-15.svg",
        "icona": "./icons-active/town-15.svg",
        "type": "Point",
        "lat": -22.5698432,
        "lon": 17.0758172
  },
    {
        "site": "Weltevrede Guest Farm",
        "place": "Sossusvlei",
        "country": "Namibia",
        "aug": 9,
        "duration": "August 9 - 10",
        "iconl": "./icons-latent/farm-15.svg",
        "icona": "./icons-active/farm-15.svg",
        "type": "Point",
        "lat": -24.177695,
        "lon": 15.9798687
  },
    {
        "site": "Dune Star Camp",
        "place": "Namib Desert",
        "country": "Namibia",
        "aug": 10,
        "duration": "August 10 - 11",
        "iconl": "./icons-latent/shelter-15.svg",
        "icona": "./icons-active/shelter-15.svg",
        "type": "Point",
        "lat": -24.1024524,
        "lon": 15.5545123
  },
    {
        "site": "Swakopmund",
        "place": "Erongo",
        "country": "Namibia",
        "aug": 11,
        "duration": "August 11 - 12",
        "iconl": "./icons-latent/town-15.svg",
        "icona": "./icons-active/town-15.svg",
        "type": "Point",
        "lat": -22.6377331,
        "lon": 14.5273671
  },
    {
        "site": "Madisa Camp",
        "place": "Dorob",
        "country": "Namibia",
        "aug": 12,
        "duration": "August 12 - 13",
        "iconl": "./icons-latent/campsite-15.svg",
        "icona": "./icons-active/campsite-15.svg",
        "type": "Point",
        "lat": -20.7263783,
        "lon": 14.6801908
  },
    {
        "site": "Vingerklip Lodge",
        "place": "Vingerklip",
        "country": "Namibia",
        "aug": 13,
        "duration": "August 13 - 14",
        "iconl": "./icons-latent/shelter-15.svg",
        "icona": "./icons-active/shelter-15.svg",
        "type": "Point",
        "lat": -20.3924248,
        "lon": 15.4225338
  },
    {
        "site": "Ashley & Sam's",
        "place": "Windhoek",
        "country": "Namibia",
        "aug": 14,
        "duration": "August 6 - 9",
        "iconl": "./icons-latent/town-15.svg",
        "icona": "./icons-active/town-15.svg",
        "type": "Point",
        "lat": -22.5698432,
        "lon": 17.0758172
  },
    {
        "site": "La Provence Cottages",
        "place": "Franschhoek",
        "country": "South Africa",
        "aug": 15,
        "duration": "August 15 - 17",
        "iconl": "./icons-latent/natural-15.svg",
        "icona": "./icons-active/natural-15.svg",
        "type": "Point",
        "lat": -33.8951361,
        "lon": 19.101916
  },
    {
        "site": "La Provence Cottages",
        "place": "Franschhoek",
        "country": "South Africa",
        "aug": 16,
        "duration": "August 15 - 17",
        "iconl": "./icons-latent/natural-15.svg",
        "icona": "./icons-active/natural-15.svg",
        "type": "Point",
        "lat": -33.8951361,
        "lon": 19.101916
  },
    {
        "site": "La Provence Cottages",
        "place": "Franschhoek",
        "country": "South Africa",
        "aug": 17,
        "duration": "August 15 - 17",
        "iconl": "./icons-latent/natural-15.svg",
        "icona": "./icons-active/natural-15.svg",
        "type": "Point",
        "lat": -33.8951361,
        "lon": 19.101916
  }
]
